[{"id":42,"name":"127 Francis Drive","type":"RESIDENTIAL_SINGLE_FAMILY","class":"RESIDENTIAL","state":"GA","city":"Macon","zip":"31216","units":0,"occPct":0,"active":true,"lat":null,"lng":null},{"id":43,"name":"1431 E 7Th Ave","type":"RESIDENTIAL_SINGLE_FAMILY","class":"RESIDENTIAL","state":"IN","city":"Gary","zip":"46402","units":1,"occPct":0,"active":true,"lat":null,"lng":null},{"id":44,"name":"1569 Fillmore St.","type":"RESIDENTIAL_SINGLE_FAMILY","class":"RESIDENTIAL","state":"IN","city":"Gary","zip":"46408","units":1,"occPct":0,"active":true,"lat":null,"lng":null},{"id":45,"name":"300 Ward Street","type":"RESIDENTIAL_SINGLE_FAMILY","class":"RESIDENTIAL","state":"GA","city":"Warner Robbins","zip":"31093","units":1,"occPct":0,"active":true,"lat":null,"lng":null},{"id":46,"name":"3412 Garfield Ave","type":"RESIDENTIAL_SINGLE_FAMILY","class":"RESIDENTIAL","state":"IN","city":"Highland","zip":"46322","units":1,"occPct":0,"active":true,"lat":null,"lng":null},{"id":47,"name":"3454 Lawton Rd. Macon, GA 31204-Dr. Hoo's Trust","type":"RESIDENTIAL_SINGLE_FAMILY","class":"RESIDENTIAL","state":"GA","city":"Macon","zip":"31204","units":1,"occPct":0,"active":true,"lat":null,"lng":null},{"id":48,"name":"1057 Polk St","type":"RESIDENTIAL_MULTI_FAMILY","class":"RESIDENTIAL","state":"IN","city":"Gary","zip":"46402","units":2,"occPct":0,"active":true,"lat":null,"lng":null},{"id":49,"name":"1113 Schley St. Macon, GA 31206-Dr. Hoo's Trust","type":"RESIDENTIAL_SINGLE_FAMILY","class":"RESIDENTIAL","state":"GA","city":"Macon","zip":"31206","units":1,"occPct":0,"active":true,"lat":null,"lng":null},{"id":50,"name":"1003 Central Ave.","type":"RESIDENTIAL_SINGLE_FAMILY","class":"RESIDENTIAL","state":"IN","city":"Gary","zip":"46407","units":1,"occPct":0,"active":true,"lat":null,"lng":null},{"id":51,"name":"1289 West 19Th Ave","type":"RESIDENTIAL_SINGLE_FAMILY","class":"RESIDENTIAL","state":"IN","city":"Gary","zip":"46407","units":1,"occPct":0,"active":true,"lat":null,"lng":null},{"id":52,"name":"101 Grant St","type":"RESIDENTIAL_SINGLE_FAMILY","class":"RESIDENTIAL","state":"IN","city":"Lowell","zip":"46356","units":1,"occPct":0,"active":true,"lat":null,"lng":null},{"id":53,"name":"1113 Schley Street","type":"RESIDENTIAL_SINGLE_FAMILY","class":"RESIDENTIAL","state":"GA","city":"Macon","zip":"31206","units":0,"occPct":0,"active":true,"lat":null,"lng":null},{"id":54,"name":"3462 Lawton Road","type":"RESIDENTIAL_SINGLE_FAMILY","class":"RESIDENTIAL","state":"GA","city":"Macon","zip":"31204","units":1,"occPct":0,"active":true,"lat":null,"lng":null},{"id":55,"name":"3470 Lawton Rd. Macon, GA 31204-Dr. Hoo's Trust","type":"RESIDENTIAL_SINGLE_FAMILY","class":"RESIDENTIAL","state":"GA","city":"Macon","zip":"31204","units":1,"occPct":0,"active":true,"lat":null,"lng":null},{"id":56,"name":"3470 Lawton Road","type":"RESIDENTIAL_SINGLE_FAMILY","class":"RESIDENTIAL","state":"GA","city":"Macon","zip":"31204","units":1,"occPct":0,"active":true,"lat":null,"lng":null},{"id":57,"name":"3526-28 E 9Th Ave Gary, IN 46403-Dr. Hoo's Trust","type":"RESIDENTIAL_TOWNHOME","class":"RESIDENTIAL","state":"IN","city":"Gary","zip":"46403","units":1,"occPct":0,"active":true,"lat":null,"lng":null},{"id":58,"name":"3526-28 E 9Th Ave. Gary, IN 46403-Dr. Hoo's Trust","type":"RESIDENTIAL_TOWNHOME","class":"RESIDENTIAL","state":"IN","city":"Gary","zip":"46403","units":1,"occPct":0,"active":true,"lat":null,"lng":null},{"id":59,"name":"3600-02 East 9Th Avenue Gary, IN 46403-Dr. Hoo's Trust","type":"RESIDENTIAL_TOWNHOME","class":"RESIDENTIAL","state":"IN","city":"Gary","zip":"46403","units":1,"occPct":0,"active":true,"lat":null,"lng":null},{"id":60,"name":"15137 7th Ave","type":"RESIDENTIAL_SINGLE_FAMILY","class":"RESIDENTIAL","state":"IL","city":"Phoenix","zip":"60426","units":1,"occPct":0,"active":true,"lat":null,"lng":null},{"id":61,"name":"3600-02 East 9th Avenue","type":"RESIDENTIAL_MULTI_FAMILY","class":"RESIDENTIAL","state":"IN","city":"Gary","zip":"46403","units":2,"occPct":0,"active":true,"lat":null,"lng":null},{"id":62,"name":"3616-18 East 9Th Ave","type":"RESIDENTIAL_MULTI_FAMILY","class":"RESIDENTIAL","state":"IN","city":"Gary","zip":"46403","units":2,"occPct":0,"active":true,"lat":null,"lng":null},{"id":20,"name":"2384 Wheeler","type":"RESIDENTIAL_SINGLE_FAMILY","class":"RESIDENTIAL","state":"IN","city":"Gary","zip":"46404","units":1,"occPct":0,"active":true,"lat":null,"lng":null},{"id":23,"name":"2413 Delaware","type":"RESIDENTIAL_SINGLE_FAMILY","class":"RESIDENTIAL","state":"IN","city":"Gary","zip":"46407","units":1,"occPct":0,"active":true,"lat":null,"lng":null},{"id":24,"name":"2420 Adams Ave. Macon, GA 31206 -Bruntz Family Trust","type":"RESIDENTIAL_SINGLE_FAMILY","class":"RESIDENTIAL","state":"GA","city":"Macon","zip":"31206","units":1,"occPct":0,"active":true,"lat":null,"lng":null},{"id":25,"name":"2420 Adams Avenue","type":"RESIDENTIAL_SINGLE_FAMILY","class":"RESIDENTIAL","state":"GA","city":"Macon","zip":"31206","units":1,"occPct":0,"active":true,"lat":null,"lng":null},{"id":26,"name":"2432 Virginia","type":"RESIDENTIAL_SINGLE_FAMILY","class":"RESIDENTIAL","state":"IN","city":"Gary","zip":"46407","units":1,"occPct":0,"active":true,"lat":null,"lng":null},{"id":27,"name":"2435 Thrasher Avenue","type":"RESIDENTIAL_SINGLE_FAMILY","class":"RESIDENTIAL","state":"GA","city":"Macon","zip":"31206","units":1,"occPct":0,"active":true,"lat":null,"lng":null},{"id":28,"name":"1168 Van Buren","type":"RESIDENTIAL_SINGLE_FAMILY","class":"RESIDENTIAL","state":"IN","city":"Gary","zip":"46402","units":1,"occPct":0,"active":true,"lat":null,"lng":null},{"id":29,"name":"2436 Jefferson Street","type":"RESIDENTIAL_SINGLE_FAMILY","class":"RESIDENTIAL","state":"IN","city":"Gary","zip":"46407","units":1,"occPct":0,"active":true,"lat":null,"lng":null},{"id":30,"name":"2441 Diamond Ave","type":"RESIDENTIAL_SINGLE_FAMILY","class":"RESIDENTIAL","state":"IN","city":"Gary","zip":"46407","units":1,"occPct":0,"active":true,"lat":null,"lng":null},{"id":31,"name":"2456 Connecticut St","type":"RESIDENTIAL_SINGLE_FAMILY","class":"RESIDENTIAL","state":"IN","city":"Gary","zip":"46407","units":1,"occPct":0,"active":true,"lat":null,"lng":null},{"id":32,"name":"246 Pierce St","type":"RESIDENTIAL_SINGLE_FAMILY","class":"RESIDENTIAL","state":"IN","city":"Gary","zip":"46402","units":1,"occPct":0,"active":true,"lat":null,"lng":null},{"id":33,"name":"1310 Van Buren St","type":"RESIDENTIAL_SINGLE_FAMILY","class":"RESIDENTIAL","state":"IN","city":"Gary","zip":"46404","units":1,"occPct":0,"active":true,"lat":null,"lng":null},{"id":34,"name":"1049 Polk St","type":"RESIDENTIAL_SINGLE_FAMILY","class":"RESIDENTIAL","state":"IN","city":"Gary","zip":"46402","units":1,"occPct":0,"active":true,"lat":null,"lng":null},{"id":35,"name":"107 Galahad Drive","type":"RESIDENTIAL_SINGLE_FAMILY","class":"RESIDENTIAL","state":"GA","city":"Warner Robbins","zip":"31093","units":1,"occPct":0,"active":true,"lat":null,"lng":null},{"id":36,"name":"2657 East 22Nd St","type":"RESIDENTIAL_SINGLE_FAMILY","class":"RESIDENTIAL","state":"IN","city":"Gary","zip":"46407","units":1,"occPct":0,"active":true,"lat":null,"lng":null},{"id":37,"name":"2754 Hillcrest Avenue","type":"RESIDENTIAL_SINGLE_FAMILY","class":"RESIDENTIAL","state":"GA","city":"Macon","zip":"31204","units":1,"occPct":0,"active":true,"lat":null,"lng":null},{"id":38,"name":"1528 Maryland","type":"RESIDENTIAL_SINGLE_FAMILY","class":"RESIDENTIAL","state":"IN","city":"Gary","zip":"46407","units":1,"occPct":0,"active":true,"lat":null,"lng":null},{"id":39,"name":"2925 W 8Th Ave","type":"RESIDENTIAL_SINGLE_FAMILY","class":"RESIDENTIAL","state":"IN","city":"Gary","zip":"46404","units":1,"occPct":0,"active":true,"lat":null,"lng":null},{"id":40,"name":"300 Meadowridge Dr. Warner Robins, GA 31093 -Lila Properties","type":"RESIDENTIAL_SINGLE_FAMILY","class":"RESIDENTIAL","state":"GA","city":"Warner Robins","zip":"31093","units":1,"occPct":0,"active":true,"lat":null,"lng":null},{"id":41,"name":"300 Meadowridge Drive","type":"RESIDENTIAL_SINGLE_FAMILY","class":"RESIDENTIAL","state":"GA","city":"Warner Robbins","zip":"31093","units":1,"occPct":0,"active":true,"lat":null,"lng":null},{"id":63,"name":"1448 Oakland Ave. Macon, GA 31204-Lila Properties ","type":"RESIDENTIAL_SINGLE_FAMILY","class":"RESIDENTIAL","state":"GA","city":"Macon","zip":"31204","units":1,"occPct":0,"active":true,"lat":null,"lng":null},{"id":64,"name":"1805 Elberta Road","type":"RESIDENTIAL_SINGLE_FAMILY","class":"RESIDENTIAL","state":"GA","city":"Warner Robbins","zip":"31093","units":0,"occPct":0,"active":true,"lat":null,"lng":null},{"id":65,"name":"3622-28 East 9Th Ave","type":"RESIDENTIAL_MULTI_FAMILY","class":"RESIDENTIAL","state":"IN","city":"Gary","zip":"46403","units":2,"occPct":0,"active":true,"lat":null,"lng":null},{"id":1,"name":"14111 Magnolia St","type":"RESIDENTIAL_SINGLE_FAMILY","class":"RESIDENTIAL","state":"IN","city":"Cedar Lake","zip":"46303","units":1,"occPct":0,"active":true,"lat":null,"lng":null},{"id":9,"name":"2247-51 Nichols Pl","type":"RESIDENTIAL_SINGLE_FAMILY","class":"RESIDENTIAL","state":"IN","city":"Gary","zip":"46407","units":1,"occPct":0,"active":true,"lat":null,"lng":null},{"id":10,"name":"2258 Delaware St","type":"RESIDENTIAL_SINGLE_FAMILY","class":"RESIDENTIAL","state":"IN","city":"Gary","zip":"46402","units":1,"occPct":0,"active":true,"lat":null,"lng":null},{"id":11,"name":"2351 Industrial Blvd","type":"RESIDENTIAL_SINGLE_FAMILY","class":"RESIDENTIAL","state":"IN","city":"Gary","zip":"46407","units":1,"occPct":0,"active":true,"lat":null,"lng":null},{"id":12,"name":"2356 Maryland St.","type":"RESIDENTIAL_SINGLE_FAMILY","class":"RESIDENTIAL","state":"IN","city":"Gary","zip":"46404","units":1,"occPct":0,"active":true,"lat":null,"lng":null},{"id":13,"name":"2361 Industrial Blvd","type":"RESIDENTIAL_SINGLE_FAMILY","class":"RESIDENTIAL","state":"IN","city":"Gary","zip":"46407","units":1,"occPct":0,"active":true,"lat":null,"lng":null},{"id":14,"name":"2361 Rhode Island","type":"RESIDENTIAL_SINGLE_FAMILY","class":"RESIDENTIAL","state":"IN","city":"Gary","zip":"46402","units":1,"occPct":0,"active":true,"lat":null,"lng":null},{"id":15,"name":"1586 Hanley St","type":"RESIDENTIAL_SINGLE_FAMILY","class":"RESIDENTIAL","state":"IN","city":"Gary","zip":"46406","units":1,"occPct":0,"active":true,"lat":null,"lng":null},{"id":16,"name":"1803 Canterbury Road","type":"RESIDENTIAL_SINGLE_FAMILY","class":"RESIDENTIAL","state":"GA","city":"Macon","zip":"31206","units":0,"occPct":0,"active":true,"lat":null,"lng":null},{"id":17,"name":"1829 Pennsylvania St","type":"RESIDENTIAL_SINGLE_FAMILY","class":"RESIDENTIAL","state":"IN","city":"Gary","zip":"46407","units":1,"occPct":0,"active":true,"lat":null,"lng":null},{"id":18,"name":"2373 Jefferson St","type":"RESIDENTIAL_SINGLE_FAMILY","class":"RESIDENTIAL","state":"IN","city":"Gary","zip":"46407","units":1,"occPct":0,"active":true,"lat":null,"lng":null},{"id":19,"name":"2380 Pierce St","type":"RESIDENTIAL_SINGLE_FAMILY","class":"RESIDENTIAL","state":"IN","city":"Gary","zip":"46408","units":1,"occPct":0,"active":true,"lat":null,"lng":null},{"id":21,"name":"1448 Oakland Avenue","type":"RESIDENTIAL_SINGLE_FAMILY","class":"RESIDENTIAL","state":"GA","city":"Macon","zip":"31204","units":1,"occPct":0,"active":true,"lat":null,"lng":null},{"id":22,"name":"2401 Delaware St","type":"RESIDENTIAL_SINGLE_FAMILY","class":"RESIDENTIAL","state":"IN","city":"Gary","zip":"46403","units":1,"occPct":0,"active":true,"lat":null,"lng":null},{"id":66,"name":"3622-28 East 9Th Ave Gary, IN 46403-Dr. Hoo's Trust","type":"RESIDENTIAL_TOWNHOME","class":"RESIDENTIAL","state":"IN","city":"Gary","zip":"46403","units":1,"occPct":0,"active":true,"lat":null,"lng":null},{"id":67,"name":"3771 w 20th Ave, Gary, IN 46404","type":"RESIDENTIAL_SINGLE_FAMILY","class":"RESIDENTIAL","state":"IN","city":"Gary","zip":"46404","units":1,"occPct":0,"active":true,"lat":null,"lng":null},{"id":68,"name":"3815 Lindsey Drive","type":"RESIDENTIAL_SINGLE_FAMILY","class":"RESIDENTIAL","state":"GA","city":"Macon","zip":"31206","units":1,"occPct":0,"active":true,"lat":null,"lng":null},{"id":69,"name":"3828 Delaware St","type":"RESIDENTIAL_SINGLE_FAMILY","class":"RESIDENTIAL","state":"IN","city":"Gary","zip":"46406","units":1,"occPct":0,"active":true,"lat":null,"lng":null},{"id":70,"name":"3905 Tennessee St","type":"RESIDENTIAL_SINGLE_FAMILY","class":"RESIDENTIAL","state":"IN","city":"Gary","zip":"46409","units":1,"occPct":0,"active":true,"lat":null,"lng":null},{"id":71,"name":"3930 Madison St","type":"RESIDENTIAL_SINGLE_FAMILY","class":"RESIDENTIAL","state":"IN","city":"Gary","zip":"46408","units":1,"occPct":0,"active":true,"lat":null,"lng":null},{"id":72,"name":"3976 Lincoln St","type":"RESIDENTIAL_SINGLE_FAMILY","class":"RESIDENTIAL","state":"IN","city":"Gary","zip":"46408","units":1,"occPct":0,"active":true,"lat":null,"lng":null},{"id":73,"name":"4000 Adams","type":"RESIDENTIAL_SINGLE_FAMILY","class":"RESIDENTIAL","state":"IN","city":"Gary","zip":"46408","units":1,"occPct":0,"active":true,"lat":null,"lng":null},{"id":74,"name":"4015 Drummond St","type":"RESIDENTIAL_SINGLE_FAMILY","class":"RESIDENTIAL","state":"IN","city":"East Chicago","zip":"46312","units":1,"occPct":0,"active":true,"lat":null,"lng":null},{"id":75,"name":"407 Porter St","type":"RESIDENTIAL_SINGLE_FAMILY","class":"RESIDENTIAL","state":"IN","city":"Gary","zip":"46406","units":1,"occPct":0,"active":true,"lat":null,"lng":null},{"id":83,"name":"438 Ellsworth St","type":"RESIDENTIAL_SINGLE_FAMILY","class":"RESIDENTIAL","state":"IN","city":"Gary","zip":"46402","units":1,"occPct":0,"active":true,"lat":null,"lng":null},{"id":84,"name":"4389 Johnson Street","type":"RESIDENTIAL_SINGLE_FAMILY","class":"RESIDENTIAL","state":"IN","city":"Gary","zip":"46408","units":1,"occPct":0,"active":true,"lat":null,"lng":null},{"id":85,"name":"4409 E.12Th Place","type":"RESIDENTIAL_SINGLE_FAMILY","class":"RESIDENTIAL","state":"IN","city":"Gary","zip":"46409","units":1,"occPct":0,"active":true,"lat":null,"lng":null},{"id":86,"name":"449 Monroe St","type":"RESIDENTIAL_SINGLE_FAMILY","class":"RESIDENTIAL","state":"IN","city":"Gary","zip":"46402","units":1,"occPct":0,"active":true,"lat":null,"lng":null},{"id":87,"name":"4635 Towle Ave","type":"RESIDENTIAL_MULTI_FAMILY","class":"RESIDENTIAL","state":"IN","city":"Hammond","zip":"46327","units":2,"occPct":0,"active":true,"lat":null,"lng":null},{"id":88,"name":"4725 Pennslvannia St","type":"RESIDENTIAL_SINGLE_FAMILY","class":"RESIDENTIAL","state":"IN","city":"Gary","zip":"46408","units":1,"occPct":0,"active":true,"lat":null,"lng":null},{"id":89,"name":"4787 Adams Street","type":"RESIDENTIAL_SINGLE_FAMILY","class":"RESIDENTIAL","state":"IN","city":"Gary","zip":"46408","units":1,"occPct":0,"active":true,"lat":null,"lng":null},{"id":76,"name":"410-08 Marshall St","type":"RESIDENTIAL_SINGLE_FAMILY","class":"RESIDENTIAL","state":"IN","city":"Gary","zip":"46402","units":1,"occPct":0,"active":true,"lat":null,"lng":null},{"id":77,"name":"4148 Johnson St","type":"RESIDENTIAL_SINGLE_FAMILY","class":"RESIDENTIAL","state":"IN","city":"Gary","zip":"46408","units":1,"occPct":0,"active":true,"lat":null,"lng":null},{"id":78,"name":"4171 Delaware St.","type":"RESIDENTIAL_SINGLE_FAMILY","class":"RESIDENTIAL","state":"IN","city":"Gary","zip":"46407","units":1,"occPct":0,"active":true,"lat":null,"lng":null},{"id":79,"name":"4224 Monroe St","type":"RESIDENTIAL_SINGLE_FAMILY","class":"RESIDENTIAL","state":"IN","city":"Gary","zip":"46408","units":1,"occPct":0,"active":true,"lat":null,"lng":null},{"id":80,"name":"4256 Virginia","type":"RESIDENTIAL_SINGLE_FAMILY","class":"RESIDENTIAL","state":"IN","city":"Gary","zip":"46409","units":1,"occPct":0,"active":true,"lat":null,"lng":null},{"id":81,"name":"4280 Adams","type":"RESIDENTIAL_SINGLE_FAMILY","class":"RESIDENTIAL","state":"IN","city":"Gary","zip":"46407","units":1,"occPct":0,"active":true,"lat":null,"lng":null},{"id":82,"name":"4340 Carolina","type":"RESIDENTIAL_SINGLE_FAMILY","class":"RESIDENTIAL","state":"IN","city":"Gary","zip":"46409","units":1,"occPct":0,"active":true,"lat":null,"lng":null},{"id":90,"name":"4900 West 7Th Avenue","type":"RESIDENTIAL_SINGLE_FAMILY","class":"RESIDENTIAL","state":"IN","city":"Gary","zip":"46406","units":1,"occPct":0,"active":true,"lat":null,"lng":null},{"id":91,"name":"5053 Maryland St","type":"RESIDENTIAL_SINGLE_FAMILY","class":"RESIDENTIAL","state":"IN","city":"Gary","zip":"46409","units":1,"occPct":0,"active":true,"lat":null,"lng":null},{"id":92,"name":"5334 East 10Th Ave","type":"RESIDENTIAL_SINGLE_FAMILY","class":"RESIDENTIAL","state":"IN","city":"Gary","zip":"46403","units":1,"occPct":0,"active":true,"lat":null,"lng":null},{"id":93,"name":"560 Kentucky St","type":"RESIDENTIAL_SINGLE_FAMILY","class":"RESIDENTIAL","state":"IN","city":"Gary","zip":"46404","units":1,"occPct":0,"active":true,"lat":null,"lng":null},{"id":94,"name":"574 Villa Crest Avenue","type":"RESIDENTIAL_SINGLE_FAMILY","class":"RESIDENTIAL","state":"GA","city":"Macon","zip":"31206","units":0,"occPct":0,"active":true,"lat":null,"lng":null},{"id":95,"name":"600 Richmond Hill Parkway","type":"RESIDENTIAL_SINGLE_FAMILY","class":"RESIDENTIAL","state":"GA","city":"Byron","zip":"31008","units":1,"occPct":0,"active":true,"lat":null,"lng":null},{"id":96,"name":"136 West 41St Ave","type":"RESIDENTIAL_SINGLE_FAMILY","class":"RESIDENTIAL","state":"IN","city":"Gary","zip":"46402","units":1,"occPct":0,"active":true,"lat":null,"lng":null},{"id":97,"name":"618 Ohio St","type":"RESIDENTIAL_SINGLE_FAMILY","class":"RESIDENTIAL","state":"IN","city":"Gary","zip":"46402","units":1,"occPct":0,"active":true,"lat":null,"lng":null},{"id":98,"name":"6324 Maryland Ave","type":"RESIDENTIAL_SINGLE_FAMILY","class":"RESIDENTIAL","state":"IN","city":"Hammond","zip":"46323","units":1,"occPct":0,"active":true,"lat":null,"lng":null},{"id":99,"name":"6327 Maryland Ave","type":"RESIDENTIAL_SINGLE_FAMILY","class":"RESIDENTIAL","state":"IN","city":"Hammond","zip":"46323","units":1,"occPct":0,"active":true,"lat":null,"lng":null},{"id":100,"name":"6334 Euclid Ave","type":"RESIDENTIAL_SINGLE_FAMILY","class":"RESIDENTIAL","state":"IN","city":"Hammond","zip":"46324","units":1,"occPct":0,"active":true,"lat":null,"lng":null},{"id":101,"name":"1289 Rocky Creek Road","type":"RESIDENTIAL_SINGLE_FAMILY","class":"RESIDENTIAL","state":"GA","city":"Macon","zip":"31206","units":0,"occPct":0,"active":true,"lat":null,"lng":null},{"id":114,"name":" 3600-02 East 9Th Avenue Gary, IN 46403-Dr. Hoo's Trust","type":"RESIDENTIAL_TOWNHOME","class":"RESIDENTIAL","state":"IN","city":"Gary","zip":"46403","units":1,"occPct":0,"active":true,"lat":null,"lng":null},{"id":115,"name":"1063 Polk St","type":"RESIDENTIAL_SINGLE_FAMILY","class":"RESIDENTIAL","state":"IN","city":"Gary","zip":"46402","units":1,"occPct":0,"active":true,"lat":null,"lng":null},{"id":116,"name":"1112-18 Wyoming St","type":"RESIDENTIAL_SINGLE_FAMILY","class":"RESIDENTIAL","state":"IN","city":"Gary","zip":"46407","units":1,"occPct":0,"active":true,"lat":null,"lng":null},{"id":117,"name":"1573 Polk St","type":"RESIDENTIAL_SINGLE_FAMILY","class":"RESIDENTIAL","state":"IN","city":"Gary","zip":"46407","units":1,"occPct":0,"active":true,"lat":null,"lng":null},{"id":118,"name":"202 Elmwood Street","type":"RESIDENTIAL_SINGLE_FAMILY","class":"RESIDENTIAL","state":"GA","city":"Warner Robbins","zip":"31093","units":1,"occPct":0,"active":true,"lat":null,"lng":null},{"id":119,"name":"102 Williams Street","type":"RESIDENTIAL_SINGLE_FAMILY","class":"RESIDENTIAL","state":"GA","city":"Warner Robbins","zip":"31093","units":1,"occPct":0,"active":true,"lat":null,"lng":null},{"id":120,"name":"2028 Pennsylvania St","type":"RESIDENTIAL_SINGLE_FAMILY","class":"RESIDENTIAL","state":"IN","city":"Gary","zip":"46409","units":1,"occPct":0,"active":true,"lat":null,"lng":null},{"id":121,"name":"2415 W 21st Ave","type":"RESIDENTIAL_SINGLE_FAMILY","class":"RESIDENTIAL","state":"IN","city":"Gary","zip":"46404","units":1,"occPct":0,"active":true,"lat":null,"lng":null},{"id":122,"name":"1030 W 13Th Ave","type":"RESIDENTIAL_SINGLE_FAMILY","class":"RESIDENTIAL","state":"IN","city":"Gary","zip":"46407","units":1,"occPct":0,"active":true,"lat":null,"lng":null},{"id":123,"name":"2307 Georgia St","type":"RESIDENTIAL_SINGLE_FAMILY","class":"RESIDENTIAL","state":"IN","city":"Gary","zip":"46403","units":1,"occPct":0,"active":true,"lat":null,"lng":null},{"id":124,"name":"1359 Roosevelt Place","type":"RESIDENTIAL_SINGLE_FAMILY","class":"RESIDENTIAL","state":"IN","city":"Gary","zip":"46402","units":1,"occPct":0,"active":true,"lat":null,"lng":null},{"id":125,"name":"2333 Vermont St","type":"RESIDENTIAL_SINGLE_FAMILY","class":"RESIDENTIAL","state":"IN","city":"Gary","zip":"46407","units":1,"occPct":0,"active":true,"lat":null,"lng":null},{"id":126,"name":"1512 W 72nd Pl","type":"RESIDENTIAL_SINGLE_FAMILY","class":"RESIDENTIAL","state":"IL","city":"Chicago","zip":"60636","units":1,"occPct":0,"active":true,"lat":null,"lng":null},{"id":102,"name":"1291 Rocky Creek Road","type":"RESIDENTIAL_SINGLE_FAMILY","class":"RESIDENTIAL","state":"GA","city":"Macon","zip":"31206","units":0,"occPct":0,"active":true,"lat":null,"lng":null},{"id":103,"name":"706 Mississippi St","type":"RESIDENTIAL_SINGLE_FAMILY","class":"RESIDENTIAL","state":"IN","city":"Gary","zip":"46402","units":0,"occPct":0,"active":true,"lat":null,"lng":null},{"id":104,"name":"713 Maryland St","type":"RESIDENTIAL_SINGLE_FAMILY","class":"RESIDENTIAL","state":"IN","city":"Gary","zip":"46402","units":1,"occPct":0,"active":true,"lat":null,"lng":null},{"id":105,"name":"1308 Roosevelt St","type":"RESIDENTIAL_SINGLE_FAMILY","class":"RESIDENTIAL","state":"IN","city":"Gary","zip":"46404","units":1,"occPct":0,"active":true,"lat":null,"lng":null},{"id":106,"name":"1364 Taney Street","type":"RESIDENTIAL_SINGLE_FAMILY","class":"RESIDENTIAL","state":"IN","city":"Gary","zip":"46404","units":1,"occPct":0,"active":true,"lat":null,"lng":null},{"id":107,"name":"1408 Carolina St","type":"RESIDENTIAL_SINGLE_FAMILY","class":"RESIDENTIAL","state":"IN","city":"Gary","zip":"46407","units":0,"occPct":0,"active":true,"lat":null,"lng":null},{"id":108,"name":" 2932 E 950 S","type":"RESIDENTIAL_SINGLE_FAMILY","class":"RESIDENTIAL","state":"IN","city":"Hamlet","zip":"46532","units":1,"occPct":0,"active":true,"lat":null,"lng":null},{"id":109,"name":"13435 S Avenue M","type":"RESIDENTIAL_SINGLE_FAMILY","class":"RESIDENTIAL","state":"IL","city":"Chicago","zip":"60633","units":1,"occPct":0,"active":true,"lat":null,"lng":null},{"id":110,"name":"1354 Old Cave Spring Road","type":"RESIDENTIAL_MULTI_FAMILY","class":"RESIDENTIAL","state":"GA","city":"Rome","zip":"30161","units":0,"occPct":0,"active":true,"lat":null,"lng":null},{"id":111,"name":"1978 Central Dr","type":"RESIDENTIAL_SINGLE_FAMILY","class":"RESIDENTIAL","state":"IN","city":"Gary","zip":"46407","units":1,"occPct":0,"active":true,"lat":null,"lng":null},{"id":112,"name":"202 Elmwood St Warner Robins, GA 31093. -Dr. Hoo's Trust","type":"RESIDENTIAL_SINGLE_FAMILY","class":"RESIDENTIAL","state":"GA","city":"Warner Robins","zip":"31093","units":1,"occPct":0,"active":true,"lat":null,"lng":null},{"id":113,"name":"2031 Mar Sha Drive","type":"RESIDENTIAL_SINGLE_FAMILY","class":"RESIDENTIAL","state":"GA","city":"Macon","zip":"31217","units":0,"occPct":0,"active":true,"lat":null,"lng":null},{"id":127,"name":"2482 Delaware St","type":"RESIDENTIAL_SINGLE_FAMILY","class":"RESIDENTIAL","state":"IN","city":"Gary","zip":"46407","units":1,"occPct":0,"active":true,"lat":null,"lng":null},{"id":147,"name":"3616-18 East 9Th Ave Gary, IN 46403-Dr. Hoo's Trust","type":"RESIDENTIAL_TOWNHOME","class":"RESIDENTIAL","state":"IN","city":"Gary","zip":"46403","units":1,"occPct":0,"active":true,"lat":null,"lng":null},{"id":148,"name":"3622-28 East 9Th Ave Gary, IN 46403-Dr. Hoo's Trust","type":"RESIDENTIAL_TOWNHOME","class":"RESIDENTIAL","state":"IN","city":"Gary","zip":"46403","units":1,"occPct":0,"active":true,"lat":null,"lng":null},{"id":149,"name":"264 Ellsworth St","type":"RESIDENTIAL_SINGLE_FAMILY","class":"RESIDENTIAL","state":"IN","city":"Gary","zip":"46404","units":1,"occPct":0,"active":true,"lat":null,"lng":null},{"id":150,"name":"3526-28 E 9Th Ave","type":"RESIDENTIAL_MULTI_FAMILY","class":"RESIDENTIAL","state":"IN","city":"Gary","zip":"46403","units":2,"occPct":0,"active":true,"lat":null,"lng":null},{"id":151,"name":"Split Parcel - 2216 E 19th","type":"RESIDENTIAL_SINGLE_FAMILY","class":"RESIDENTIAL","state":"IN","city":"Gary","zip":"46407","units":1,"occPct":0,"active":true,"lat":null,"lng":null},{"id":152,"name":"2546 W 9Th Ave","type":"RESIDENTIAL_SINGLE_FAMILY","class":"RESIDENTIAL","state":"IN","city":"Gary","zip":"46404","units":1,"occPct":0,"active":true,"lat":null,"lng":null},{"id":128,"name":"1021 Mount St - Hiya Holding","type":"RESIDENTIAL_SINGLE_FAMILY","class":"RESIDENTIAL","state":"IN","city":"Gary","zip":"46406","units":1,"occPct":0,"active":true,"lat":null,"lng":null},{"id":129,"name":"2044 Pennsylvannia St","type":"RESIDENTIAL_SINGLE_FAMILY","class":"RESIDENTIAL","state":"IN","city":"Gary","zip":"46407","units":1,"occPct":0,"active":true,"lat":null,"lng":null},{"id":130,"name":"2057 Maryland St","type":"RESIDENTIAL_SINGLE_FAMILY","class":"RESIDENTIAL","state":"IN","city":"Gary","zip":"46407","units":1,"occPct":0,"active":true,"lat":null,"lng":null},{"id":131,"name":"2670 E 22Pl","type":"RESIDENTIAL_SINGLE_FAMILY","class":"RESIDENTIAL","state":"IN","city":"Gary","zip":"46407","units":1,"occPct":0,"active":true,"lat":null,"lng":null},{"id":132,"name":"1735 Harrison St.","type":"RESIDENTIAL_SINGLE_FAMILY","class":"RESIDENTIAL","state":"IN","city":"Gary","zip":"46402","units":1,"occPct":0,"active":true,"lat":null,"lng":null},{"id":133,"name":"1886 Loganberry Lane, Crown Point, IN 46307","type":"RESIDENTIAL_SINGLE_FAMILY","class":"RESIDENTIAL","state":"IN","city":"Crown Point","zip":"46307","units":1,"occPct":0,"active":true,"lat":null,"lng":null},{"id":134,"name":"255 Polk St","type":"RESIDENTIAL_SINGLE_FAMILY","class":"RESIDENTIAL","state":"IN","city":"Gary","zip":"46406","units":1,"occPct":0,"active":true,"lat":null,"lng":null},{"id":135,"name":"315 W43Rd","type":"RESIDENTIAL_SINGLE_FAMILY","class":"RESIDENTIAL","state":"IN","city":"Gary","zip":"46402","units":1,"occPct":0,"active":true,"lat":null,"lng":null},{"id":136,"name":"3462 Lawton Rd. Macon, GA 31204-Dr. Hoo's Trust","type":"RESIDENTIAL_SINGLE_FAMILY","class":"RESIDENTIAL","state":"GA","city":"Macon","zip":"31204","units":1,"occPct":0,"active":true,"lat":null,"lng":null},{"id":137,"name":"1210 New Jersey St","type":"RESIDENTIAL_SINGLE_FAMILY","class":"RESIDENTIAL","state":"IN","city":"Gary","zip":"46403","units":1,"occPct":0,"active":true,"lat":null,"lng":null},{"id":138,"name":"2348 Industrial Blvd","type":"RESIDENTIAL_MULTI_FAMILY","class":"RESIDENTIAL","state":"IN","city":"Gary","zip":"46407","units":1,"occPct":0,"active":true,"lat":null,"lng":null},{"id":139,"name":"3454 Rhode Island, Gary IN 46409","type":"RESIDENTIAL_SINGLE_FAMILY","class":"RESIDENTIAL","state":"IN","city":"Gary","zip":"46409","units":1,"occPct":0,"active":true,"lat":null,"lng":null},{"id":140,"name":"1313 Pennsylvania St","type":"RESIDENTIAL_SINGLE_FAMILY","class":"RESIDENTIAL","state":"IN","city":"Gary","zip":"46407","units":1,"occPct":0,"active":true,"lat":null,"lng":null},{"id":141,"name":"1011 Wentworth Ave","type":"RESIDENTIAL_SINGLE_FAMILY","class":"RESIDENTIAL","state":"IL","city":"Calumet City","zip":"60409","units":1,"occPct":0,"active":true,"lat":null,"lng":null},{"id":142,"name":"1120 May St","type":"RESIDENTIAL_SINGLE_FAMILY","class":"RESIDENTIAL","state":"IN","city":"Hammond","zip":"46320","units":1,"occPct":0,"active":true,"lat":null,"lng":null},{"id":143,"name":"3412 218th Pl","type":"RESIDENTIAL_SINGLE_FAMILY","class":"RESIDENTIAL","state":"IL","city":"Matteson","zip":"60443","units":1,"occPct":0,"active":true,"lat":null,"lng":null},{"id":144,"name":"2373 Jefferson St - Hiya Holding","type":"RESIDENTIAL_SINGLE_FAMILY","class":"RESIDENTIAL","state":"IN","city":"Gary","zip":"46407","units":1,"occPct":0,"active":true,"lat":null,"lng":null},{"id":145,"name":"3454 Lawton Road Macon, GA 31204","type":"RESIDENTIAL_SINGLE_FAMILY","class":"RESIDENTIAL","state":"GA","city":"Macon","zip":"31204","units":1,"occPct":0,"active":true,"lat":null,"lng":null},{"id":146,"name":"3609 Sunset Ave","type":"RESIDENTIAL_SINGLE_FAMILY","class":"RESIDENTIAL","state":"IL","city":"Markham","zip":"60428","units":1,"occPct":0,"active":true,"lat":null,"lng":null},{"id":153,"name":"2548 Jefferson St","type":"RESIDENTIAL_SINGLE_FAMILY","class":"RESIDENTIAL","state":"IN","city":"Gary","zip":"46407","units":1,"occPct":0,"active":true,"lat":null,"lng":null},{"id":154,"name":"316 Fillmore St","type":"RESIDENTIAL_SINGLE_FAMILY","class":"RESIDENTIAL","state":"IN","city":"Gary","zip":"46407","units":1,"occPct":0,"active":true,"lat":null,"lng":null},{"id":155,"name":"2952 Aubudon Drive","type":"RESIDENTIAL_SINGLE_FAMILY","class":"RESIDENTIAL","state":"GA","city":"Macon","zip":"31204","units":0,"occPct":0,"active":true,"lat":null,"lng":null},{"id":156,"name":"3616-18 East 9Th Ave Gary, IN 46403-3616-Dr. Hoo's Trust","type":"RESIDENTIAL_TOWNHOME","class":"RESIDENTIAL","state":"IN","city":"Gary","zip":"46403","units":1,"occPct":0,"active":true,"lat":null,"lng":null},{"id":157,"name":"608 Tennessee St","type":"RESIDENTIAL_SINGLE_FAMILY","class":"RESIDENTIAL","state":"IN","city":"Gary","zip":"46402","units":1,"occPct":0,"active":true,"lat":null,"lng":null},{"id":158,"name":"723 Mississippi St","type":"RESIDENTIAL_SINGLE_FAMILY","class":"RESIDENTIAL","state":"IN","city":"Gary","zip":"46402","units":1,"occPct":0,"active":true,"lat":null,"lng":null},{"id":159,"name":"9100 Sheffield Ave","type":"RESIDENTIAL_MULTI_FAMILY","class":"RESIDENTIAL","state":"IN","city":"Dyer","zip":"46311","units":2,"occPct":0,"active":true,"lat":null,"lng":null},{"id":160,"name":"723 Mississippi St - Hiya Holding","type":"RESIDENTIAL_SINGLE_FAMILY","class":"RESIDENTIAL","state":"IN","city":"Gary","zip":"46402","units":1,"occPct":0,"active":true,"lat":null,"lng":null},{"id":161,"name":"734 E 41st Ave","type":"RESIDENTIAL_SINGLE_FAMILY","class":"RESIDENTIAL","state":"IN","city":"Gary","zip":"46409","units":0,"occPct":0,"active":true,"lat":null,"lng":null},{"id":162,"name":"670 Louisiana St","type":"RESIDENTIAL_SINGLE_FAMILY","class":"RESIDENTIAL","state":"IN","city":"Gary","zip":"46407","units":1,"occPct":0,"active":true,"lat":null,"lng":null},{"id":163,"name":"711 N Davis Drive","type":"RESIDENTIAL_SINGLE_FAMILY","class":"RESIDENTIAL","state":"GA","city":"Warner Robbins","zip":"31093","units":0,"occPct":0,"active":true,"lat":null,"lng":null},{"id":164,"name":"7326 S Woodlawn Ave","type":"RESIDENTIAL_MULTI_FAMILY","class":"RESIDENTIAL","state":"IL","city":"Chicago","zip":"60619","units":2,"occPct":0,"active":true,"lat":null,"lng":null},{"id":165,"name":"717 Martin Luther King Dr","type":"RESIDENTIAL_SINGLE_FAMILY","class":"RESIDENTIAL","state":"IN","city":"Gary","zip":"46407","units":1,"occPct":0,"active":true,"lat":null,"lng":null},{"id":166,"name":"740 Rhode Island","type":"RESIDENTIAL_SINGLE_FAMILY","class":"RESIDENTIAL","state":"IN","city":"Gary","zip":"46402","units":1,"occPct":0,"active":true,"lat":null,"lng":null},{"id":178,"name":"955 Baker St","type":"RESIDENTIAL_SINGLE_FAMILY","class":"RESIDENTIAL","state":"IN","city":"Gary","zip":"46404","units":1,"occPct":0,"active":true,"lat":null,"lng":null},{"id":179,"name":"963 Lane St","type":"RESIDENTIAL_SINGLE_FAMILY","class":"RESIDENTIAL","state":"IN","city":"Gary","zip":"46312","units":1,"occPct":0,"active":true,"lat":null,"lng":null},{"id":180,"name":"Corporate Property","type":"RESIDENTIAL_OTHER","class":"RESIDENTIAL","state":"IN","city":"Crown Point","zip":"46307","units":1,"occPct":0,"active":true,"lat":null,"lng":null},{"id":181,"name":"Litigation:  383 Lincoln St","type":"RESIDENTIAL_SINGLE_FAMILY","class":"RESIDENTIAL","state":"IN","city":"Gary","zip":"46407","units":1,"occPct":0,"active":true,"lat":null,"lng":null},{"id":182,"name":"970 Wright St","type":"RESIDENTIAL_SINGLE_FAMILY","class":"RESIDENTIAL","state":"IN","city":"Gary","zip":"46312","units":1,"occPct":0,"active":true,"lat":null,"lng":null},{"id":2,"name":"1460 W 17Th","type":"RESIDENTIAL_SINGLE_FAMILY","class":"RESIDENTIAL","state":"IN","city":"Gary","zip":"46404","units":1,"occPct":0,"active":true,"lat":null,"lng":null},{"id":3,"name":"1100 Hokanson Dr","type":"RESIDENTIAL_SINGLE_FAMILY","class":"RESIDENTIAL","state":"IN","city":"Porter","zip":"46304","units":1,"occPct":0,"active":true,"lat":null,"lng":null},{"id":4,"name":"217 Camellia Circle","type":"RESIDENTIAL_SINGLE_FAMILY","class":"RESIDENTIAL","state":"GA","city":"Warner Robbins","zip":"31093","units":0,"occPct":0,"active":true,"lat":null,"lng":null},{"id":5,"name":"2201 W 171st St","type":"RESIDENTIAL_SINGLE_FAMILY","class":"RESIDENTIAL","state":"IL","city":"Hazelcrest","zip":"60429","units":1,"occPct":0,"active":true,"lat":null,"lng":null},{"id":6,"name":"2217 Central Dr","type":"RESIDENTIAL_SINGLE_FAMILY","class":"RESIDENTIAL","state":"IN","city":"Gary","zip":"46404","units":0,"occPct":0,"active":true,"lat":null,"lng":null},{"id":7,"name":"2227 Kentucky St.","type":"RESIDENTIAL_SINGLE_FAMILY","class":"RESIDENTIAL","state":"IN","city":"Gary","zip":"46406","units":1,"occPct":0,"active":true,"lat":null,"lng":null},{"id":8,"name":"2240 White Oak Avenue","type":"RESIDENTIAL_MULTI_FAMILY","class":"RESIDENTIAL","state":"IN","city":"Whiting","zip":"46394","units":2,"occPct":0,"active":true,"lat":null,"lng":null},{"id":167,"name":"7424 Beech Ave","type":"RESIDENTIAL_SINGLE_FAMILY","class":"RESIDENTIAL","state":"IN","city":"Hammond","zip":"46324","units":1,"occPct":0,"active":true,"lat":null,"lng":null},{"id":168,"name":"706 Mississippi St - Hiya Holding","type":"RESIDENTIAL_SINGLE_FAMILY","class":"RESIDENTIAL","state":"IN","city":"Gary","zip":"46402","units":1,"occPct":0,"active":true,"lat":null,"lng":null},{"id":169,"name":"796 Burr St, Gary, IN 46406","type":"RESIDENTIAL_SINGLE_FAMILY","class":"RESIDENTIAL","state":"IN","city":"Gary","zip":"46406","units":1,"occPct":0,"active":true,"lat":null,"lng":null},{"id":170,"name":"826 Cherry St","type":"RESIDENTIAL_SINGLE_FAMILY","class":"RESIDENTIAL","state":"IN","city":"Hammond","zip":"46324","units":1,"occPct":0,"active":true,"lat":null,"lng":null},{"id":171,"name":"804 Kentucky St","type":"RESIDENTIAL_SINGLE_FAMILY","class":"RESIDENTIAL","state":"IN","city":"Gary","zip":"46407","units":1,"occPct":0,"active":true,"lat":null,"lng":null},{"id":172,"name":"831 W 62nd Pl","type":"RESIDENTIAL_SINGLE_FAMILY","class":"RESIDENTIAL","state":"IN","city":"Merrillville","zip":"46410","units":1,"occPct":0,"active":true,"lat":null,"lng":null},{"id":173,"name":"840 Tennessee St","type":"RESIDENTIAL_SINGLE_FAMILY","class":"RESIDENTIAL","state":"IN","city":"Gary","zip":"46403","units":1,"occPct":0,"active":true,"lat":null,"lng":null},{"id":174,"name":"762 Hovey St","type":"RESIDENTIAL_SINGLE_FAMILY","class":"RESIDENTIAL","state":"IN","city":"Gary","zip":"46406","units":1,"occPct":0,"active":true,"lat":null,"lng":null},{"id":175,"name":"863 Georgia St","type":"RESIDENTIAL_SINGLE_FAMILY","class":"RESIDENTIAL","state":"IN","city":"Gary","zip":"46402","units":1,"occPct":0,"active":true,"lat":null,"lng":null},{"id":176,"name":"836 Harrison St","type":"RESIDENTIAL_SINGLE_FAMILY","class":"RESIDENTIAL","state":"IN","city":"Gary","zip":"46402","units":1,"occPct":0,"active":true,"lat":null,"lng":null},{"id":177,"name":"917 East 19Th Ave","type":"RESIDENTIAL_SINGLE_FAMILY","class":"RESIDENTIAL","state":"IN","city":"Gary","zip":"46408","units":1,"occPct":0,"active":true,"lat":null,"lng":null},{"id":183,"name":"Litigation:  4616  Connecticut St","type":"RESIDENTIAL_SINGLE_FAMILY","class":"RESIDENTIAL","state":"IN","city":"Gary","zip":"46409","units":1,"occPct":0,"active":true,"lat":null,"lng":null},{"id":184,"name":"Litigation:  2332 East 20Th Ave","type":"RESIDENTIAL_SINGLE_FAMILY","class":"RESIDENTIAL","state":"IN","city":"Gary","zip":"46407","units":1,"occPct":0,"active":true,"lat":null,"lng":null}]